[
  {
    "destinationId": "boston-northend",
    "name": "Boston",
    "description": "The North End neighborhood of Boston is filled with restaurants.",
    "lat": 42.21,
    "lng": 71.30,
    "imageUrl": "https://upload.wikimedia.org/wikipedia/commons/a/aa/North_End%2C_Boston.jpg"
  },
  {
    "destinationId": "philly-independence",
    "name": "Philadelphia",
    "description": "Philadelphia is a historic American city, visit and check it off your list!",
    "lat": 39.56,
    "lng": 75.90,
    "imageUrl": "https://upload.wikimedia.org/wikipedia/commons/7/72/Independence_Hall_Philly.JPG"
  },
  {
    "destinationId": "sanfran",
    "name": "San Francisco",
    "description": "San Francisco, a hub of modern technology and culture.  Good weather, good beaches, bad traffic.",
    "lat": 37.47,
    "lng": 122.25,
    "imageUrl": "https://upload.wikimedia.org/wikipedia/commons/5/57/Lightmatter_sanfrancisco.jpg"
  },
  {
    "destinationId": "elpaso-tx",
    "name": "El Paso, Texas",
    "description": "This bordertown is full of independent cowboys.  Visit at your own risk.",
    "lat": 31.47,
    "lng": 106.29,
    "imageUrl": "https://upload.wikimedia.org/wikipedia/commons/1/18/El_paso_downtown_main.jpg"
  },
  {
    "destinationId": "seoul-sk",
    "name": "Seoul, Korea",
    "description": "Loved visiting Seoul, can't wait to go back!",
    "lat": 37.515,
    "lng": 126.89,
    "imageUrl": "https://upload.wikimedia.org/wikipedia/commons/0/0a/Seoul_Subway_1_Ichon.jpg"
  },
  {
    "destinationId": "londong-end",
    "name": "London",
    "description": "The weather sucks, but the people and pubs are great!",
    "lat": 51.50,
    "lng": -0.12,
    "imageUrl": "https://upload.wikimedia.org/wikipedia/commons/c/c4/London_skyline_tower_bridge_east.jpg"
  },
  {
    "destinationId": "tokyo-jp",
    "name": "Tokyo",
    "description": "Just..beautiful.  Love this place.",
    "lat": 35.67,
    "lng": 139.84,
    "imageUrl": "https://upload.wikimedia.org/wikipedia/commons/a/a7/Akihabara_tree-lined_road.jpg"
  },
  {
    "destinationId": "lasvegas-nv",
    "name": "Las Vegas",
    "description": "What happens in Vegas, stays in Vegas.",
    "lat": 36.11,
    "lng": -115.17,
    "imageUrl": "hhttps://upload.wikimedia.org/wikipedia/commons/7/76/Las_Vegas_strip.jpg"
  },
  {
    "destinationId": "dublin-ire",
    "name": "Dublin",
    "description": "Apparently some of my relatives come from here.  Nice place.",
    "lat": 53.20,
    "lng": 6.16,
    "imageUrl": "https://upload.wikimedia.org/wikipedia/commons/0/09/OConnellStreet.JPG"
  },
  {
    "destinationId": "shenz",
    "name": "Shenzhen",
    "description": "The one and only.  An absolutely massive and inspiring city.",
    "lat": 22.54,
    "lng": 114.06,
    "imageUrl": "https://upload.wikimedia.org/wikipedia/commons/f/f2/Shenzhen_huizhanzhongxin.jpg"
  },
  {
    "destinationId": "jamaica-beach",
    "name": "Jamaica",
    "description": "The beaches of Jamaica.  Looks relaxing.",
    "lat": 22.98,
    "lng": -82.17,
    "imageUrl": "https://upload.wikimedia.org/wikipedia/commons/5/58/Bluefields_Beach%2C_Jamaica.jpg"
  },
  {
    "destinationId": "toronto-ca",
    "name": "Toronto",
    "description": "Cold place, but a really nice city.  French culture, hockey, what's not to like.",
    "lat": 43.76,
    "lng": -79.41,
    "imageUrl": "https://upload.wikimedia.org/wikipedia/commons/c/c6/Toronto_-_ON_-_Toronto_Skyline2.jpg"
  },
  {
    "destinationId": "india-pal",
    "name": "India",
    "description": "Have never been to a country so different yet so similar.  Would love to go again.",
    "lat": 26.64,
    "lng": 77.21,
    "imageUrl": "https://upload.wikimedia.org/wikipedia/commons/6/6e/Closer_View_to_Harminder_sahib_%28_golden_temple_%29.JPG"
  },
  {
    "destinationId": "aus-outback",
    "name": "Australia",
    "description": "Never been to the outback.  Will have to go one day, just avoid all the deadly plants and animals.",
    "lat": 33.51,
    "lng": 151.12,
    "imageUrl": "https://upload.wikimedia.org/wikipedia/commons/e/e4/Termite_mounds_NT.JPG"
  }
]
